Stop_ID,Stop_Name,Latitude,Longitude,Route_Number,Address,Additional_Info
366459518,UBND Phường 17,10.8384347,106.6794039,Unknown,,platform
2593665743,Công ty Đồng Tâm,10.8419697,106.6434822,Unknown,,yes
3167039162,Đầu Công viên Gia Định,10.8131373,106.6779114,Unknown,,platform
3167039164,Cầu vượt Nguyễn Thái Sơn - Nguyễn Kiệm,10.8162398,106.6804333,Unknown,,platform
3167044461,Ngã ba Phạm Ngũ Lão,10.8196997,106.6831117,Unknown,,platform
3167044462,Trạm Xe Bus UBND Phường 3,10.8199071,106.6831457,Unknown,,platform
3167044467,Cầu vượt Ngã sáu Gò Vấp,10.8237109,106.678986,Unknown,,platform
3167052561,Trường Cao đẳng Hải quan,10.8124847,106.6786928,Unknown,,platform
3168055831,Cầu vượt Ngã sáu Gò Vấp,10.8289815,106.6787703,Unknown,,platform
3168055832,Cầu vượt Ngã sáu Gò Vấp,10.8284951,106.6788602,Unknown,,platform
3168055834,Cư xá Lam Sơn,10.8361073,106.6755947,Unknown,,platform
3168055835,Đài Liệt sĩ,10.8392755,106.6758416,Unknown,,platform
3168057762,Bến Đò,10.8467986,106.6784211,Unknown,,platform
3168057763,Bến Đò,10.8469995,106.6783213,Unknown,,platform
3168057764,Cầu An Lộc,10.8491376,106.6787628,Unknown,,platform
3168915061,Uỷ ban Nhân dân Phường 5,10.825148,106.6879721,Unknown,,platform
3168915062,Bãi hậu cần số 1,10.823964,106.691945,Unknown,,platform
3169694169,Chùa Huỳnh Kim,10.8350641,106.6631358,Unknown,,platform
3169694170,Chợ Hạnh Thông Tây,10.8368656,106.6571176,Unknown,,platform
3169694171,Chợ Hạnh Thông Tây,10.8365939,106.6574207,Unknown,,platform
3169694172,Dệt may Phương Đông,10.8384948,106.650511,Unknown,,platform
3169694173,Dệt may Phương Đông,10.8385076,106.6498331,Unknown,,platform
3169694174,Làng Trẻ em SOS,10.8399431,106.6464594,Unknown,,platform
3169694176,Ngã tư Cầu Cống,10.8440328,106.6406657,Unknown,,platform
3169694177,Ngã tư Cầu Cống,10.8437309,106.6407747,Unknown,,platform
3169702452,Trường Tiểu học An Hội,10.8451046,106.6417866,Unknown,,platform
3169702453,Nhà thờ Thạch Đà,10.8509299,106.6545572,Unknown,,platform
3169702454,Ngã ba Lê Đức Thọ,10.8538843,106.6560836,Unknown,,platform
3169702455,Cầu Cụt,10.8545006,106.6566863,Unknown,,platform
3169702456,Trường Tiểu học Lê Thị Hồng Gấm 1,10.8525641,106.6609996,Unknown,,platform
3169702457,Nhà thờ Hợp An,10.8537319,106.6643926,Unknown,,platform
3169702458,Trạm Xe Bus Nhà Thờ Hà Nội,10.8518612,106.6652527,Unknown,,platform
3169702459,Nhà thờ Nữ Vương Hòa Bình,10.8564179,106.6545518,Unknown,,platform
3169711126,Trạm Xe Bus Lê Văn Thọ - Cây Trâm,10.8419204,106.657179,Unknown,,platform
3169711127,Nhà hàng Tư Trì,10.849057,106.6566681,Unknown,,platform
3172180910,Vincom Plaza,10.8268199,106.689775,Unknown,,platform
3172180911,Chợ Bến Cát,10.8299456,106.6881775,Unknown,,platform
3172180912,XP Garden,10.8364743,106.683412,Unknown,,platform
3174415093,Trạm Xe Bus Lê Văn Thọ - Phạm Văn Chiêu,10.8505696,106.6561724,Unknown,,platform
3174416228,Đài liệt sĩ,10.8384674,106.6759254,Unknown,,platform
3174416230,Điện lực Gò Vấp,10.8385433,106.6658149,Unknown,,platform
3174416232,Trạm Xe Bus Nhà Tang Lễ Gò Vấp,10.8425941,106.6621938,Unknown,,platform
3174416233,Trạm Xe Bus Chùa Pháp Bảo,10.8447758,106.6608203,Unknown,,
3174416234,Câu lạc bộ Tennis - 322 Lê Văn Thọ,10.8460681,106.6570489,Unknown,,platform
3175105776,Trạm Xe Bus Lê Quang Định - Nguyễn Thượng Hiền,10.8151055,106.6892294,Unknown,,platform
3175105777,Trạm Xe Bus Giao Lộ Phạm Văn Đồng,10.8185456,106.6895076,Unknown,,platform
3175110461,Chi cục thuế Quận Gò Vấp,10.8262729,106.6827082,Unknown,,platform
3180450073,Cây Xăng Anh Thư,10.8368079,106.63611,Unknown,,platform
3180450074,Chùa Linh Sơn Hải Hội,10.8414163,106.6383578,Unknown,,platform
3180450075,Ngã ba Nguyễn Duy Cung,10.8431445,106.6394604,Unknown,,platform
3181108998,CoopMart Phan Văn Trị,10.8296479,106.681434,Unknown,,platform
3181108999,Nhà khách Phía Nam,10.8326622,106.6726733,Unknown,,platform
3181109001,Chợ Thông Tây,10.8357743,106.6646738,Unknown,,platform
3182311219,Trạm Xe Bus Giao Lộ Nguyễn Huy Điển,10.8312359,106.6823679,Unknown,,platform
3182311228,Trạm Xe Bus Giao Lộ Phạm Huy Thông,10.8338317,106.6819856,Unknown,,platform
3182311229,Trường Văn Thư lưu trữ,10.8369521,106.6808536,Unknown,,platform
3182311230,Trạm Xe Bus Chợ An Nhơn,10.8404239,106.6787172,Unknown,,platform
5151366704,Trạm Xe Bus Hẻm 270 Nguyễn Văn Lượng,10.8385513,106.6722917,Unknown,,platform
5196280423,Bãi hậu cần số 1,10.8230139,106.691356,Unknown,,platform
10964744893,Ngã tư An Nhơn,10.8415871,106.6764039,Unknown,,platform
11753277712,Cầu vượt Ngã sáu Gò Vấp,10.8245516,106.6812196,Unknown,,platform
11753277713,Cầu vượt Ngã sáu Gò Vấp,10.829166,106.6786557,Unknown,,platform
11753277714,Ngã tư Phan Văn Trị,10.832444,106.6767129,Unknown,,platform
11753277716,Ngã tư An Nhơn,10.84218,106.6767484,Unknown,,platform
11753277749,Cầu An Lộc,10.84879,106.6785445,Unknown,,platform
11753277751,Bưu điện An Nhơn,10.8439719,106.6772363,Unknown,,platform
11753277753,Đài Liệt sĩ,10.8395033,106.675739,Unknown,,platform
11753277754,Trường Vinhempic,10.8369333,106.6754577,Unknown,,platform
11753277755,Cư xá Lam Sơn,10.8349731,106.6755864,Unknown,,platform
11753277756,Ngã tư Phan Văn Trị,10.8316752,106.6769212,Unknown,,platform
11753277758,Bệnh viện Quân y 175,10.8200217,106.6787507,Unknown,,platform
11753277759,Chợ Tân Sơn Nhất,10.8167716,106.6786775,Unknown,,platform
11753277760,Đầu Công viên Gia Định,10.8133403,106.6775919,Unknown,,platform
11755184322,Ngã ba Phạm Ngũ Lão,10.8208396,106.6840333,Unknown,,platform
11755184323,Trường Đại học Công nghiệp,10.8228183,106.6855887,Unknown,,platform
11755184327,Uỷ ban Nhân dân Phường 5,10.8255046,106.6882739,Unknown,,platform
11755184328,Trường Đại học Công nghiệp,10.8227583,106.685291,Unknown,,platform
11755184329,Ngã ba Phạm Ngũ Lão,10.8209346,106.6838843,Unknown,,platform
11758401318,Ngã ba Nguyên Hồng,10.8173237,106.6889701,Unknown,,platform
11758401319,Trường Đại học Công nghiệp,10.8215704,106.6888169,Unknown,,platform
11758401320,Chùa Bà Thiên Hậu,10.8252687,106.6850477,Unknown,,platform
11758401321,Chi cục thuế Quận Gò Vấp,10.8263302,106.6828769,Unknown,,platform
11758401322,Siêu thị Văn Lang,10.826823,106.6791898,Unknown,,platform
11758401323,Công ty 32,10.8280499,106.6754841,Unknown,,platform
11758401324,Nhà thờ Xóm Thuốc,10.8290789,106.6726567,Unknown,,platform
11758401325,Uỷ ban Nhân dân Quận Gò Vấp,10.8310148,106.6691962,Unknown,,platform
11758401326,Viện kiểm sát Nhân dân Quận Gò Vấp,10.8329325,106.6667534,Unknown,,platform
11758401327,Chùa Huỳnh Kim,10.8351312,106.66347,Unknown,,platform
11758401328,City Mart,10.8358787,106.661043,Unknown,,platform
11758401330,Trường Trung học Phổ thông Nguyễn Công Trứ,10.837996,106.6525617,Unknown,,platform
11758401333,Công ty Đồng Tâm,10.8421979,106.6433668,Unknown,,platform
11758401335,Chợ Cầu,10.8454768,106.6385041,Unknown,,platform
11758401378,Chợ Cầu,10.8450313,106.63893,Unknown,,platform
11758401380,Làng Trẻ em SOS,10.8409176,106.6449864,Unknown,,platform
11758401381,Ngã ba Tân Sơn,10.8390477,106.6477731,Unknown,,platform
11758401383,Trường Trung học Phổ thông Nguyễn Công Trứ,10.8375308,106.6537446,Unknown,,platform
11758401385,City Mart,10.8356606,106.6611998,Unknown,,platform
11758401387,Viện Kiểm sát Nhân dân Quận Gò Vấp,10.8332286,106.6661438,Unknown,,platform
11758401388,Uỷ ban Nhân dân Quận Gò Vấp,10.8306291,106.669452,Unknown,,platform
11758401389,Nhà thờ Xóm Thuốc,10.8291979,106.671931,Unknown,,platform
11758401390,Xóm Thuốc,10.828465,106.67396,Unknown,,platform
11758401391,Công ty 32,10.8274963,106.6767504,Unknown,,platform
11758401392,Siêu thi Văn Lang,10.8267984,106.6788183,Unknown,,platform
11758401394,Chùa Bà Thiên Hậu,10.8252982,106.6848077,Unknown,,platform
11758401395,Trường Đại học Công nghiệp,10.8223941,106.6882625,Unknown,,platform
11758401396,Ngã ba Nguyên Hồng,10.8178842,106.6891579,Unknown,,platform
11773323797,Trường Cao đẳng Du lịch,10.8331127,106.6343858,Unknown,,platform
11773323798,Trung tâm y khoa Dân Sinh,10.834825,106.6351663,Unknown,,platform
11773323800,Nhà sách Phan Huy Ích,10.8394009,106.6372719,Unknown,,platform
11773323804,Ngã ba Cây Trâm,10.8458585,106.6432902,Unknown,,platform
11773323805,Đường số 53,10.8470705,106.6458235,Unknown,,platform
11773323806,Công ty Huê Phong,10.8481644,106.6480599,Unknown,,platform
11773323807,Chợ Thạch Đà,10.8495407,106.6509737,Unknown,,platform
11773323808,Nhà thờ Thạch Đà,10.8507683,106.6543077,Unknown,,platform
11773323809,Trung tâm Văn hóa Quận Gò Vấp,10.8513794,106.6575907,Unknown,,platform
11773323812,Nhà thờ Hà Nội,10.8510612,106.665124,Unknown,,platform
11773323813,Nhà thờ Trung Bắc,10.8491315,106.666056,Unknown,,platform
11773323814,Trường THCS Lý Tự Trọng,10.8464006,106.6705922,Unknown,,platform
11773323815,Bệnh viện Gò Vấp,10.8447306,106.6723759,Unknown,,platform
11773323816,Ngã ba Lê Hoàng Phái,10.8425407,106.6757129,Unknown,,platform
11773635191,Ngã tư An Nhơn,10.8422053,106.6762864,Unknown,,platform
11773635192,Bệnh viện Gò Vấp,10.845083,106.6720298,Unknown,,platform
11773635193,Trường Trung học Cơ sở Lý Tự Trọng,10.8472608,106.66935,Unknown,,platform
11773635194,Nhà thờ Trung Bắc,10.8491349,106.6661562,Unknown,,platform
11773635195,Nhà thờ Hà Nội,10.8518856,106.665299,Unknown,,platform
11773635196,Nhà thờ Hợp An,10.8537943,106.6643199,Unknown,,platform
11773635197,Trường Tiểu học Lê Thị Hồng Gấm 1,10.8529307,106.6617963,Unknown,,platform
11773635198,Trung tâm Văn hóa Quận Gò Vấp,10.851559,106.6578575,Unknown,,platform
11773635200,Chợ Thạch Đà,10.8497047,106.6511365,Unknown,,platform
11773635201,Công ty Huê Phong,10.8484164,106.6484244,Unknown,,platform
11773635202,Đường số 53,10.8469903,106.6454907,Unknown,,platform
11773635203,Ngã ba Cây Trâm,10.8460431,106.6434992,Unknown,,platform
11773635204,Trường Tiểu học An Hội,10.8450343,106.6414965,Unknown,,platform
11773635205,Ngã ba Nguyễn Duy Cung,10.8429186,106.6392426,Unknown,,platform
11773635206,Chùa Linh Sơn Hải Hội,10.8410171,106.6380159,Unknown,,platform
11773635207,Nhà sách Phan Huy Ích,10.8374657,106.6362908,Unknown,,platform
11773635208,Trung tân Y khoa Dân Sinh,10.8349355,106.6351699,Unknown,,platform
11773635209,Trường Cao đẳng Du lịch,10.8324515,106.633994,Unknown,,platform
11774744220,Vincom Plaza Phan Văn Trị,10.8271499,106.6884442,Unknown,,platform
11774744221,PCCC Quận Gò Vấp,10.8285099,106.6849843,Unknown,,platform
11774744223,Cây xăng Petrolimex - Phan Văn Trị,10.8303914,106.6791589,Unknown,,platform
11774744224,Nhà máy Z751,10.8316943,106.6754682,Unknown,,platform
11774744226,Country House,10.8336647,106.6699562,Unknown,,platform
11774744227,Chợ Thông Tây,10.8349143,106.6664899,Unknown,,platform
11774744229,Ngã ba Nguyễn Văn Lương,10.8381614,106.6651883,Unknown,,platform
11774744230,UBND Phường 16,10.8421157,106.6647947,Unknown,,platform
11774744231,Trường Đại học Hồng Bàng,10.8454815,106.6648066,Unknown,,platform
11774744232,Chùa Tiên Long,10.8479826,106.6646183,Unknown,,platform
11774744243,Nhà thờ Nữ Vương Hòa Bình,10.8568394,106.6538451,Unknown,,platform
11774744244,Cầu Cụt,10.85434,106.6568186,Unknown,,platform
11774744245,Chùa Tiên Long,10.8480035,106.6645415,Unknown,,platform
11774744246,Trường Đại học Hồng Bàng,10.8446375,106.6647386,Unknown,,platform
11774744247,UBND Phường 16,10.8424703,106.6646841,Unknown,,platform
11774744248,Ngã ba Nguyễn Văn Lương,10.8392196,106.6652588,Unknown,,platform
11774744249,Chợ Thông Tây,10.8363273,106.6646925,Unknown,,platform
11774744250,Chợ Thông Tây,10.8349923,106.6658839,Unknown,,platform
11774744251,Country House,10.833851,106.6690259,Unknown,,platform
11774744252,Nhà khách Phía Nam,10.8327917,106.6719765,Unknown,,platform
11774744253,Du Miên Garden,10.8320145,106.6741154,Unknown,,platform
11774744254,Ngã tư Nguyễn Oanh,10.8310764,106.6767713,Unknown,,platform
11774744255,Cây xăng Petrolimex - Phan Văn Trị,10.8302833,106.6790424,Unknown,,platform
11774744256,CoopMart Phan Văn Trị,10.8295004,106.6814303,Unknown,,platform
11774744257,PCCC Quận Gò Vấp,10.8282689,106.6852083,Unknown,,platform
11774744258,Vincom Plaza Phan Văn Trị,10.8275224,106.6874251,Unknown,,platform
11774744259,Bãi hậu cần số 1,10.8235977,106.6920944,Unknown,,platform
11787220774,Lê Lai,10.8174167,106.6854691,Unknown,,platform
11787220775,Phạm Văn Đồng,10.8185798,106.688051,Unknown,,platform
11787220776,Nút giao Lê Quang Định,10.8194763,106.6907499,Unknown,,platform
11789253338,Chùa Phổ Minh,10.8204822,106.6932432,Unknown,,platform
11789253339,Nút giao Lê Quang Định,10.819403,106.6893271,Unknown,,platform
11789253340,Lê Lợi,10.8175831,106.685244,Unknown,,platform
11799114427,Xóm Cháy,10.8218589,106.6787945,Unknown,,platform
11861142573,Ngã tư Kênh Nhật Bản - Hồng Hà,10.8136509,106.6741609,Unknown,,platform
11861142574,Vòng xoay Nguyễn Thái Sơn,10.8140201,106.6776269,Unknown,,platform
11861142575,Chợ Cây Trâm,10.8386181,106.6578116,Unknown,,platform
11861142576,Ngã ba Cây Trâm,10.8435279,106.6571623,Unknown,,platform
11861142580,Ngã ba Lê Đức Thọ,10.8540512,106.6559574,Unknown,,platform
11861142581,Nhà hàng Tư Trì,10.8487504,106.6566743,Unknown,,platform
11861142582,Câu lạc bộ Tennis - 329 Lê Văn Thọ,10.8459135,106.6569458,Unknown,,platform
11861142583,Ngã ba Cây Trâm,10.8431738,106.6570853,Unknown,,platform
11861142584,Chợ Cây Trâm,10.83804,106.6578611,Unknown,,platform
11861142585,Chợ Tân Sơn Nhất,10.8146535,106.6778013,Unknown,,platform
11868138115,Ngã ba Phạm Huy Thông,10.8338233,106.6847779,Unknown,,platform
11868138118,UBND Phường 17,10.8386051,106.6792935,Unknown,,platform
11868138119,Đài liệt sĩ,10.8386326,106.6763147,Unknown,,platform
11868138120,Ngã sáu Gò Vấp,10.8386444,106.6741676,Unknown,,platform
11868138121,Lotte Mart,10.8386837,106.6707729,Unknown,,platform
11868138122,Điện lực Gò Vấp,10.8387182,106.66667,Unknown,,platform
11868138137,Lotte Mart,10.8385223,106.6711251,Unknown,,platform
11868138138,Ngã sáu Gò Vấp,10.8384638,106.6744936,Unknown,,platform
11868138141,Trường Văn thư lưu trữ,10.8373157,106.6806436,Unknown,,platform
11868138142,XP Garden,10.8361415,106.6834944,Unknown,,platform
11868138143,Ngã ba Phạm Huy Thông,10.8338835,106.684658,Unknown,,platform
