{
    "version": 0.6,
    "generator": "Overpass API 0.7.62.5 1bd436f1",
    "osm3s": {
      "timestamp_osm_base": "2025-04-01T19:09:43Z",
      "timestamp_areas_base": "2025-02-06T02:17:44Z",
      "copyright": "The data included in this document is from www.openstreetmap.org. The data is made available under ODbL."
    },
    "elements": [
  
  {
    "type": "node",
    "id": 366459518,
    "lat": 10.8384347,
    "lon": 106.6794039,
    "tags": {
      "bus": "yes",
      "highway": "bus_stop",
      "name": "UBND Phường 17",
      "public_transport": "platform"
    }
  },
  {
    "type": "node",
    "id": 2593665743,
    "lat": 10.8419697,
    "lon": 106.6434822,
    "tags": {
      "bus": "yes",
      "highway": "bus_stop",
      "name": "Công ty Đồng Tâm",
      "public_transport": "platform",
      "shelter": "yes"
    }
  },
  {
    "type": "node",
    "id": 3167039162,
    "lat": 10.8131373,
    "lon": 106.6779114,
    "tags": {
      "bus": "yes",
      "highway": "bus_stop",
      "name": "Đầu Công viên Gia Định",
      "public_transport": "platform"
    }
  },
  {
    "type": "node",
    "id": 3167039164,
    "lat": 10.8162398,
    "lon": 106.6804333,
    "tags": {
      "bus": "yes",
      "highway": "bus_stop",
      "name": "Cầu vượt Nguyễn Thái Sơn - Nguyễn Kiệm",
      "public_transport": "platform"
    }
  },
  {
    "type": "node",
    "id": 3167044461,
    "lat": 10.8196997,
    "lon": 106.6831117,
    "tags": {
      "bus": "yes",
      "highway": "bus_stop",
      "name": "Ngã ba Phạm Ngũ Lão",
      "public_transport": "platform"
    }
  },
  {
    "type": "node",
    "id": 3167044462,
    "lat": 10.8199071,
    "lon": 106.6831457,
    "tags": {
      "bus": "yes",
      "highway": "bus_stop",
      "name": "Trạm Xe Bus UBND Phường 3",
      "public_transport": "platform"
    }
  },
  {
    "type": "node",
    "id": 3167044467,
    "lat": 10.8237109,
    "lon": 106.6789860,
    "tags": {
      "bus": "yes",
      "highway": "bus_stop",
      "name": "Cầu vượt Ngã sáu Gò Vấp",
      "public_transport": "platform"
    }
  },
  {
    "type": "node",
    "id": 3167052561,
    "lat": 10.8124847,
    "lon": 106.6786928,
    "tags": {
      "bus": "yes",
      "highway": "bus_stop",
      "name": "Trường Cao đẳng Hải quan",
      "public_transport": "platform"
    }
  },
  {
    "type": "node",
    "id": 3168055831,
    "lat": 10.8289815,
    "lon": 106.6787703,
    "tags": {
      "bus": "yes",
      "highway": "bus_stop",
      "name": "Cầu vượt Ngã sáu Gò Vấp",
      "public_transport": "platform"
    }
  },
  {
    "type": "node",
    "id": 3168055832,
    "lat": 10.8284951,
    "lon": 106.6788602,
    "tags": {
      "bus": "yes",
      "highway": "bus_stop",
      "name": "Cầu vượt Ngã sáu Gò Vấp",
      "public_transport": "platform"
    }
  },
  {
    "type": "node",
    "id": 3168055834,
    "lat": 10.8361073,
    "lon": 106.6755947,
    "tags": {
      "bus": "yes",
      "highway": "bus_stop",
      "name": "Cư xá Lam Sơn",
      "public_transport": "platform"
    }
  },
  {
    "type": "node",
    "id": 3168055835,
    "lat": 10.8392755,
    "lon": 106.6758416,
    "tags": {
      "bus": "yes",
      "highway": "bus_stop",
      "name": "Đài Liệt sĩ",
      "public_transport": "platform"
    }
  },
  {
    "type": "node",
    "id": 3168057762,
    "lat": 10.8467986,
    "lon": 106.6784211,
    "tags": {
      "bus": "yes",
      "highway": "bus_stop",
      "name": "Bến Đò",
      "public_transport": "platform"
    }
  },
  {
    "type": "node",
    "id": 3168057763,
    "lat": 10.8469995,
    "lon": 106.6783213,
    "tags": {
      "bus": "yes",
      "highway": "bus_stop",
      "name": "Bến Đò",
      "public_transport": "platform"
    }
  },
  {
    "type": "node",
    "id": 3168057764,
    "lat": 10.8491376,
    "lon": 106.6787628,
    "tags": {
      "bus": "yes",
      "highway": "bus_stop",
      "name": "Cầu An Lộc",
      "public_transport": "platform"
    }
  },
  {
    "type": "node",
    "id": 3168915061,
    "lat": 10.8251480,
    "lon": 106.6879721,
    "tags": {
      "bus": "yes",
      "highway": "bus_stop",
      "name": "Uỷ ban Nhân dân Phường 5",
      "public_transport": "platform"
    }
  },
  {
    "type": "node",
    "id": 3168915062,
    "lat": 10.8239640,
    "lon": 106.6919450,
    "tags": {
      "bus": "yes",
      "highway": "bus_stop",
      "name": "Bãi hậu cần số 1",
      "public_transport": "platform"
    }
  },
  {
    "type": "node",
    "id": 3169694169,
    "lat": 10.8350641,
    "lon": 106.6631358,
    "tags": {
      "bus": "yes",
      "highway": "bus_stop",
      "name": "Chùa Huỳnh Kim",
      "public_transport": "platform"
    }
  },
  {
    "type": "node",
    "id": 3169694170,
    "lat": 10.8368656,
    "lon": 106.6571176,
    "tags": {
      "bus": "yes",
      "highway": "bus_stop",
      "name": "Chợ Hạnh Thông Tây",
      "public_transport": "platform"
    }
  },
  {
    "type": "node",
    "id": 3169694171,
    "lat": 10.8365939,
    "lon": 106.6574207,
    "tags": {
      "bus": "yes",
      "highway": "bus_stop",
      "name": "Chợ Hạnh Thông Tây",
      "public_transport": "platform"
    }
  },
  {
    "type": "node",
    "id": 3169694172,
    "lat": 10.8384948,
    "lon": 106.6505110,
    "tags": {
      "bus": "yes",
      "highway": "bus_stop",
      "name": "Dệt may Phương Đông",
      "public_transport": "platform"
    }
  },
  {
    "type": "node",
    "id": 3169694173,
    "lat": 10.8385076,
    "lon": 106.6498331,
    "tags": {
      "bus": "yes",
      "highway": "bus_stop",
      "name": "Dệt may Phương Đông",
      "public_transport": "platform"
    }
  },
  {
    "type": "node",
    "id": 3169694174,
    "lat": 10.8399431,
    "lon": 106.6464594,
    "tags": {
      "bus": "yes",
      "highway": "bus_stop",
      "name": "Làng Trẻ em SOS",
      "public_transport": "platform"
    }
  },
  {
    "type": "node",
    "id": 3169694176,
    "lat": 10.8440328,
    "lon": 106.6406657,
    "tags": {
      "bus": "yes",
      "highway": "bus_stop",
      "name": "Ngã tư Cầu Cống",
      "public_transport": "platform"
    }
  },
  {
    "type": "node",
    "id": 3169694177,
    "lat": 10.8437309,
    "lon": 106.6407747,
    "tags": {
      "bus": "yes",
      "highway": "bus_stop",
      "name": "Ngã tư Cầu Cống",
      "public_transport": "platform"
    }
  },
  {
    "type": "node",
    "id": 3169702452,
    "lat": 10.8451046,
    "lon": 106.6417866,
    "tags": {
      "bus": "yes",
      "highway": "bus_stop",
      "name": "Trường Tiểu học An Hội",
      "public_transport": "platform"
    }
  },
  {
    "type": "node",
    "id": 3169702453,
    "lat": 10.8509299,
    "lon": 106.6545572,
    "tags": {
      "bus": "yes",
      "highway": "bus_stop",
      "name": "Nhà thờ Thạch Đà",
      "public_transport": "platform"
    }
  },
  {
    "type": "node",
    "id": 3169702454,
    "lat": 10.8538843,
    "lon": 106.6560836,
    "tags": {
      "bus": "yes",
      "highway": "bus_stop",
      "name": "Ngã ba Lê Đức Thọ",
      "public_transport": "platform"
    }
  },
  {
    "type": "node",
    "id": 3169702455,
    "lat": 10.8545006,
    "lon": 106.6566863,
    "tags": {
      "bus": "yes",
      "highway": "bus_stop",
      "name": "Cầu Cụt",
      "public_transport": "platform"
    }
  },
  {
    "type": "node",
    "id": 3169702456,
    "lat": 10.8525641,
    "lon": 106.6609996,
    "tags": {
      "bus": "yes",
      "highway": "bus_stop",
      "name": "Trường Tiểu học Lê Thị Hồng Gấm 1",
      "public_transport": "platform"
    }
  },
  {
    "type": "node",
    "id": 3169702457,
    "lat": 10.8537319,
    "lon": 106.6643926,
    "tags": {
      "bus": "yes",
      "highway": "bus_stop",
      "name": "Nhà thờ Hợp An",
      "public_transport": "platform"
    }
  },
  {
    "type": "node",
    "id": 3169702458,
    "lat": 10.8518612,
    "lon": 106.6652527,
    "tags": {
      "bus": "yes",
      "highway": "bus_stop",
      "name": "Trạm Xe Bus Nhà Thờ Hà Nội",
      "public_transport": "platform"
    }
  },
  {
    "type": "node",
    "id": 3169702459,
    "lat": 10.8564179,
    "lon": 106.6545518,
    "tags": {
      "bus": "yes",
      "highway": "bus_stop",
      "name": "Nhà thờ Nữ Vương Hòa Bình",
      "public_transport": "platform"
    }
  },
  {
    "type": "node",
    "id": 3169711126,
    "lat": 10.8419204,
    "lon": 106.6571790,
    "tags": {
      "bus": "yes",
      "highway": "bus_stop",
      "name": "Trạm Xe Bus Lê Văn Thọ - Cây Trâm",
      "public_transport": "platform"
    }
  },
  {
    "type": "node",
    "id": 3169711127,
    "lat": 10.8490570,
    "lon": 106.6566681,
    "tags": {
      "bus": "yes",
      "highway": "bus_stop",
      "name": "Nhà hàng Tư Trì",
      "public_transport": "platform"
    }
  },
  {
    "type": "node",
    "id": 3172180910,
    "lat": 10.8268199,
    "lon": 106.6897750,
    "tags": {
      "bus": "yes",
      "highway": "bus_stop",
      "name": "Vincom Plaza",
      "public_transport": "platform"
    }
  },
  {
    "type": "node",
    "id": 3172180911,
    "lat": 10.8299456,
    "lon": 106.6881775,
    "tags": {
      "bus": "yes",
      "highway": "bus_stop",
      "name": "Chợ Bến Cát",
      "public_transport": "platform"
    }
  },
  {
    "type": "node",
    "id": 3172180912,
    "lat": 10.8364743,
    "lon": 106.6834120,
    "tags": {
      "bus": "yes",
      "highway": "bus_stop",
      "name": "XP Garden",
      "public_transport": "platform"
    }
  },
  {
    "type": "node",
    "id": 3174415093,
    "lat": 10.8505696,
    "lon": 106.6561724,
    "tags": {
      "bus": "yes",
      "highway": "bus_stop",
      "name": "Trạm Xe Bus Lê Văn Thọ - Phạm Văn Chiêu",
      "public_transport": "platform"
    }
  },
  {
    "type": "node",
    "id": 3174416228,
    "lat": 10.8384674,
    "lon": 106.6759254,
    "tags": {
      "bus": "yes",
      "highway": "bus_stop",
      "name": "Đài liệt sĩ",
      "public_transport": "platform"
    }
  },
  {
    "type": "node",
    "id": 3174416230,
    "lat": 10.8385433,
    "lon": 106.6658149,
    "tags": {
      "bus": "yes",
      "highway": "bus_stop",
      "name": "Điện lực Gò Vấp",
      "public_transport": "platform"
    }
  },
  {
    "type": "node",
    "id": 3174416232,
    "lat": 10.8425941,
    "lon": 106.6621938,
    "tags": {
      "bus": "yes",
      "highway": "bus_stop",
      "name": "Trạm Xe Bus Nhà Tang Lễ Gò Vấp",
      "public_transport": "platform"
    }
  },
  {
    "type": "node",
    "id": 3174416233,
    "lat": 10.8447758,
    "lon": 106.6608203,
    "tags": {
      "highway": "bus_stop",
      "name": "Trạm Xe Bus Chùa Pháp Bảo"
    }
  },
  {
    "type": "node",
    "id": 3174416234,
    "lat": 10.8460681,
    "lon": 106.6570489,
    "tags": {
      "bus": "yes",
      "highway": "bus_stop",
      "name": "Câu lạc bộ Tennis - 322 Lê Văn Thọ",
      "public_transport": "platform"
    }
  },
  {
    "type": "node",
    "id": 3175105776,
    "lat": 10.8151055,
    "lon": 106.6892294,
    "tags": {
      "bus": "yes",
      "highway": "bus_stop",
      "name": "Trạm Xe Bus Lê Quang Định - Nguyễn Thượng Hiền",
      "public_transport": "platform"
    }
  },
  {
    "type": "node",
    "id": 3175105777,
    "lat": 10.8185456,
    "lon": 106.6895076,
    "tags": {
      "bus": "yes",
      "highway": "bus_stop",
      "name": "Trạm Xe Bus Giao Lộ Phạm Văn Đồng",
      "public_transport": "platform"
    }
  },
  {
    "type": "node",
    "id": 3175110461,
    "lat": 10.8262729,
    "lon": 106.6827082,
    "tags": {
      "bus": "yes",
      "highway": "bus_stop",
      "name": "Chi cục thuế Quận Gò Vấp",
      "public_transport": "platform"
    }
  },
  {
    "type": "node",
    "id": 3180450073,
    "lat": 10.8368079,
    "lon": 106.6361100,
    "tags": {
      "bus": "yes",
      "highway": "bus_stop",
      "name": "Cây Xăng Anh Thư",
      "public_transport": "platform"
    }
  },
  {
    "type": "node",
    "id": 3180450074,
    "lat": 10.8414163,
    "lon": 106.6383578,
    "tags": {
      "bus": "yes",
      "highway": "bus_stop",
      "name": "Chùa Linh Sơn Hải Hội",
      "public_transport": "platform"
    }
  },
  {
    "type": "node",
    "id": 3180450075,
    "lat": 10.8431445,
    "lon": 106.6394604,
    "tags": {
      "bus": "yes",
      "highway": "bus_stop",
      "name": "Ngã ba Nguyễn Duy Cung",
      "public_transport": "platform"
    }
  },
  {
    "type": "node",
    "id": 3181108998,
    "lat": 10.8296479,
    "lon": 106.6814340,
    "tags": {
      "bus": "yes",
      "highway": "bus_stop",
      "name": "CoopMart Phan Văn Trị",
      "public_transport": "platform"
    }
  },
  {
    "type": "node",
    "id": 3181108999,
    "lat": 10.8326622,
    "lon": 106.6726733,
    "tags": {
      "bus": "yes",
      "highway": "bus_stop",
      "name": "Nhà khách Phía Nam",
      "public_transport": "platform"
    }
  },
  {
    "type": "node",
    "id": 3181109001,
    "lat": 10.8357743,
    "lon": 106.6646738,
    "tags": {
      "bus": "yes",
      "highway": "bus_stop",
      "name": "Chợ Thông Tây",
      "public_transport": "platform"
    }
  },
  {
    "type": "node",
    "id": 3182311219,
    "lat": 10.8312359,
    "lon": 106.6823679,
    "tags": {
      "bus": "yes",
      "highway": "bus_stop",
      "name": "Trạm Xe Bus Giao Lộ Nguyễn Huy Điển",
      "public_transport": "platform"
    }
  },
  {
    "type": "node",
    "id": 3182311228,
    "lat": 10.8338317,
    "lon": 106.6819856,
    "tags": {
      "bus": "yes",
      "highway": "bus_stop",
      "name": "Trạm Xe Bus Giao Lộ Phạm Huy Thông",
      "public_transport": "platform"
    }
  },
  {
    "type": "node",
    "id": 3182311229,
    "lat": 10.8369521,
    "lon": 106.6808536,
    "tags": {
      "bus": "yes",
      "highway": "bus_stop",
      "name": "Trường Văn Thư lưu trữ",
      "public_transport": "platform"
    }
  },
  {
    "type": "node",
    "id": 3182311230,
    "lat": 10.8404239,
    "lon": 106.6787172,
    "tags": {
      "bus": "yes",
      "highway": "bus_stop",
      "name": "Trạm Xe Bus Chợ An Nhơn",
      "public_transport": "platform"
    }
  },
  {
    "type": "node",
    "id": 5151366704,
    "lat": 10.8385513,
    "lon": 106.6722917,
    "tags": {
      "bus": "yes",
      "highway": "bus_stop",
      "name": "Trạm Xe Bus Hẻm 270 Nguyễn Văn Lượng",
      "public_transport": "platform"
    }
  },
  {
    "type": "node",
    "id": 5196280423,
    "lat": 10.8230139,
    "lon": 106.6913560,
    "tags": {
      "bus": "yes",
      "highway": "bus_stop",
      "name": "Bãi hậu cần số 1",
      "public_transport": "platform"
    }
  },
  {
    "type": "node",
    "id": 10964744893,
    "lat": 10.8415871,
    "lon": 106.6764039,
    "tags": {
      "bus": "yes",
      "highway": "bus_stop",
      "name": "Ngã tư An Nhơn",
      "public_transport": "platform"
    }
  },
  {
    "type": "node",
    "id": 11753277712,
    "lat": 10.8245516,
    "lon": 106.6812196,
    "tags": {
      "bus": "yes",
      "highway": "bus_stop",
      "name": "Cầu vượt Ngã sáu Gò Vấp",
      "public_transport": "platform"
    }
  },
  {
    "type": "node",
    "id": 11753277713,
    "lat": 10.8291660,
    "lon": 106.6786557,
    "tags": {
      "bus": "yes",
      "highway": "bus_stop",
      "name": "Cầu vượt Ngã sáu Gò Vấp",
      "public_transport": "platform"
    }
  },
  {
    "type": "node",
    "id": 11753277714,
    "lat": 10.8324440,
    "lon": 106.6767129,
    "tags": {
      "bus": "yes",
      "highway": "bus_stop",
      "name": "Ngã tư Phan Văn Trị",
      "public_transport": "platform"
    }
  },
  {
    "type": "node",
    "id": 11753277716,
    "lat": 10.8421800,
    "lon": 106.6767484,
    "tags": {
      "bus": "yes",
      "highway": "bus_stop",
      "name": "Ngã tư An Nhơn",
      "public_transport": "platform"
    }
  },
  {
    "type": "node",
    "id": 11753277749,
    "lat": 10.8487900,
    "lon": 106.6785445,
    "tags": {
      "bus": "yes",
      "highway": "bus_stop",
      "name": "Cầu An Lộc",
      "public_transport": "platform"
    }
  },
  {
    "type": "node",
    "id": 11753277751,
    "lat": 10.8439719,
    "lon": 106.6772363,
    "tags": {
      "bus": "yes",
      "highway": "bus_stop",
      "name": "Bưu điện An Nhơn",
      "public_transport": "platform"
    }
  },
  {
    "type": "node",
    "id": 11753277753,
    "lat": 10.8395033,
    "lon": 106.6757390,
    "tags": {
      "bus": "yes",
      "highway": "bus_stop",
      "name": "Đài Liệt sĩ",
      "public_transport": "platform"
    }
  },
  {
    "type": "node",
    "id": 11753277754,
    "lat": 10.8369333,
    "lon": 106.6754577,
    "tags": {
      "bus": "yes",
      "highway": "bus_stop",
      "name": "Trường Vinhempic",
      "public_transport": "platform"
    }
  },
  {
    "type": "node",
    "id": 11753277755,
    "lat": 10.8349731,
    "lon": 106.6755864,
    "tags": {
      "bus": "yes",
      "highway": "bus_stop",
      "name": "Cư xá Lam Sơn",
      "public_transport": "platform"
    }
  },
  {
    "type": "node",
    "id": 11753277756,
    "lat": 10.8316752,
    "lon": 106.6769212,
    "tags": {
      "bus": "yes",
      "highway": "bus_stop",
      "name": "Ngã tư Phan Văn Trị",
      "public_transport": "platform"
    }
  },
  {
    "type": "node",
    "id": 11753277758,
    "lat": 10.8200217,
    "lon": 106.6787507,
    "tags": {
      "bus": "yes",
      "highway": "bus_stop",
      "name": "Bệnh viện Quân y 175",
      "public_transport": "platform"
    }
  },
  {
    "type": "node",
    "id": 11753277759,
    "lat": 10.8167716,
    "lon": 106.6786775,
    "tags": {
      "bus": "yes",
      "highway": "bus_stop",
      "name": "Chợ Tân Sơn Nhất",
      "public_transport": "platform"
    }
  },
  {
    "type": "node",
    "id": 11753277760,
    "lat": 10.8133403,
    "lon": 106.6775919,
    "tags": {
      "bus": "yes",
      "highway": "bus_stop",
      "name": "Đầu Công viên Gia Định",
      "public_transport": "platform"
    }
  },
  {
    "type": "node",
    "id": 11755184322,
    "lat": 10.8208396,
    "lon": 106.6840333,
    "tags": {
      "bus": "yes",
      "highway": "bus_stop",
      "name": "Ngã ba Phạm Ngũ Lão",
      "public_transport": "platform"
    }
  },
  {
    "type": "node",
    "id": 11755184323,
    "lat": 10.8228183,
    "lon": 106.6855887,
    "tags": {
      "bus": "yes",
      "highway": "bus_stop",
      "name": "Trường Đại học Công nghiệp",
      "public_transport": "platform"
    }
  },
  {
    "type": "node",
    "id": 11755184327,
    "lat": 10.8255046,
    "lon": 106.6882739,
    "tags": {
      "bus": "yes",
      "highway": "bus_stop",
      "name": "Uỷ ban Nhân dân Phường 5",
      "public_transport": "platform"
    }
  },
  {
    "type": "node",
    "id": 11755184328,
    "lat": 10.8227583,
    "lon": 106.6852910,
    "tags": {
      "bus": "yes",
      "highway": "bus_stop",
      "name": "Trường Đại học Công nghiệp",
      "public_transport": "platform"
    }
  },
  {
    "type": "node",
    "id": 11755184329,
    "lat": 10.8209346,
    "lon": 106.6838843,
    "tags": {
      "bus": "yes",
      "highway": "bus_stop",
      "name": "Ngã ba Phạm Ngũ Lão",
      "public_transport": "platform"
    }
  },
  {
    "type": "node",
    "id": 11758401318,
    "lat": 10.8173237,
    "lon": 106.6889701,
    "tags": {
      "bus": "yes",
      "highway": "bus_stop",
      "name": "Ngã ba Nguyên Hồng",
      "public_transport": "platform"
    }
  },
  {
    "type": "node",
    "id": 11758401319,
    "lat": 10.8215704,
    "lon": 106.6888169,
    "tags": {
      "bus": "yes",
      "highway": "bus_stop",
      "name": "Trường Đại học Công nghiệp",
      "public_transport": "platform"
    }
  },
  {
    "type": "node",
    "id": 11758401320,
    "lat": 10.8252687,
    "lon": 106.6850477,
    "tags": {
      "bus": "yes",
      "highway": "bus_stop",
      "name": "Chùa Bà Thiên Hậu",
      "public_transport": "platform"
    }
  },
  {
    "type": "node",
    "id": 11758401321,
    "lat": 10.8263302,
    "lon": 106.6828769,
    "tags": {
      "bus": "yes",
      "highway": "bus_stop",
      "name": "Chi cục thuế Quận Gò Vấp",
      "public_transport": "platform"
    }
  },
  {
    "type": "node",
    "id": 11758401322,
    "lat": 10.8268230,
    "lon": 106.6791898,
    "tags": {
      "bus": "yes",
      "highway": "bus_stop",
      "name": "Siêu thị Văn Lang",
      "public_transport": "platform"
    }
  },
  {
    "type": "node",
    "id": 11758401323,
    "lat": 10.8280499,
    "lon": 106.6754841,
    "tags": {
      "bus": "yes",
      "highway": "bus_stop",
      "name": "Công ty 32",
      "public_transport": "platform"
    }
  },
  {
    "type": "node",
    "id": 11758401324,
    "lat": 10.8290789,
    "lon": 106.6726567,
    "tags": {
      "bus": "yes",
      "highway": "bus_stop",
      "name": "Nhà thờ Xóm Thuốc",
      "public_transport": "platform"
    }
  },
  {
    "type": "node",
    "id": 11758401325,
    "lat": 10.8310148,
    "lon": 106.6691962,
    "tags": {
      "bus": "yes",
      "highway": "bus_stop",
      "name": "Uỷ ban Nhân dân Quận Gò Vấp",
      "public_transport": "platform"
    }
  },
  {
    "type": "node",
    "id": 11758401326,
    "lat": 10.8329325,
    "lon": 106.6667534,
    "tags": {
      "bus": "yes",
      "highway": "bus_stop",
      "name": "Viện kiểm sát Nhân dân Quận Gò Vấp",
      "public_transport": "platform"
    }
  },
  {
    "type": "node",
    "id": 11758401327,
    "lat": 10.8351312,
    "lon": 106.6634700,
    "tags": {
      "bus": "yes",
      "highway": "bus_stop",
      "name": "Chùa Huỳnh Kim",
      "public_transport": "platform"
    }
  },
  {
    "type": "node",
    "id": 11758401328,
    "lat": 10.8358787,
    "lon": 106.6610430,
    "tags": {
      "bus": "yes",
      "highway": "bus_stop",
      "name": "City Mart",
      "public_transport": "platform"
    }
  },
  {
    "type": "node",
    "id": 11758401330,
    "lat": 10.8379960,
    "lon": 106.6525617,
    "tags": {
      "bus": "yes",
      "highway": "bus_stop",
      "name": "Trường Trung học Phổ thông Nguyễn Công Trứ",
      "public_transport": "platform"
    }
  },
  {
    "type": "node",
    "id": 11758401333,
    "lat": 10.8421979,
    "lon": 106.6433668,
    "tags": {
      "bus": "yes",
      "highway": "bus_stop",
      "name": "Công ty Đồng Tâm",
      "public_transport": "platform"
    }
  },
  {
    "type": "node",
    "id": 11758401335,
    "lat": 10.8454768,
    "lon": 106.6385041,
    "tags": {
      "bus": "yes",
      "highway": "bus_stop",
      "name": "Chợ Cầu",
      "public_transport": "platform"
    }
  },
  {
    "type": "node",
    "id": 11758401378,
    "lat": 10.8450313,
    "lon": 106.6389300,
    "tags": {
      "bus": "yes",
      "highway": "bus_stop",
      "name": "Chợ Cầu",
      "public_transport": "platform"
    }
  },
  {
    "type": "node",
    "id": 11758401380,
    "lat": 10.8409176,
    "lon": 106.6449864,
    "tags": {
      "bus": "yes",
      "highway": "bus_stop",
      "name": "Làng Trẻ em SOS",
      "public_transport": "platform"
    }
  },
  {
    "type": "node",
    "id": 11758401381,
    "lat": 10.8390477,
    "lon": 106.6477731,
    "tags": {
      "bus": "yes",
      "highway": "bus_stop",
      "name": "Ngã ba Tân Sơn",
      "public_transport": "platform"
    }
  },
  {
    "type": "node",
    "id": 11758401383,
    "lat": 10.8375308,
    "lon": 106.6537446,
    "tags": {
      "bus": "yes",
      "highway": "bus_stop",
      "name": "Trường Trung học Phổ thông Nguyễn Công Trứ",
      "public_transport": "platform"
    }
  },
  {
    "type": "node",
    "id": 11758401385,
    "lat": 10.8356606,
    "lon": 106.6611998,
    "tags": {
      "bus": "yes",
      "highway": "bus_stop",
      "name": "City Mart",
      "public_transport": "platform"
    }
  },
  {
    "type": "node",
    "id": 11758401387,
    "lat": 10.8332286,
    "lon": 106.6661438,
    "tags": {
      "bus": "yes",
      "highway": "bus_stop",
      "name": "Viện Kiểm sát Nhân dân Quận Gò Vấp",
      "public_transport": "platform"
    }
  },
  {
    "type": "node",
    "id": 11758401388,
    "lat": 10.8306291,
    "lon": 106.6694520,
    "tags": {
      "bus": "yes",
      "highway": "bus_stop",
      "name": "Uỷ ban Nhân dân Quận Gò Vấp",
      "public_transport": "platform"
    }
  },
  {
    "type": "node",
    "id": 11758401389,
    "lat": 10.8291979,
    "lon": 106.6719310,
    "tags": {
      "bus": "yes",
      "highway": "bus_stop",
      "name": "Nhà thờ Xóm Thuốc",
      "public_transport": "platform"
    }
  },
  {
    "type": "node",
    "id": 11758401390,
    "lat": 10.8284650,
    "lon": 106.6739600,
    "tags": {
      "bus": "yes",
      "highway": "bus_stop",
      "name": "Xóm Thuốc",
      "public_transport": "platform"
    }
  },
  {
    "type": "node",
    "id": 11758401391,
    "lat": 10.8274963,
    "lon": 106.6767504,
    "tags": {
      "bus": "yes",
      "highway": "bus_stop",
      "name": "Công ty 32",
      "public_transport": "platform"
    }
  },
  {
    "type": "node",
    "id": 11758401392,
    "lat": 10.8267984,
    "lon": 106.6788183,
    "tags": {
      "bus": "yes",
      "highway": "bus_stop",
      "name": "Siêu thi Văn Lang",
      "public_transport": "platform"
    }
  },
  {
    "type": "node",
    "id": 11758401394,
    "lat": 10.8252982,
    "lon": 106.6848077,
    "tags": {
      "bus": "yes",
      "highway": "bus_stop",
      "name": "Chùa Bà Thiên Hậu",
      "public_transport": "platform"
    }
  },
  {
    "type": "node",
    "id": 11758401395,
    "lat": 10.8223941,
    "lon": 106.6882625,
    "tags": {
      "bus": "yes",
      "highway": "bus_stop",
      "name": "Trường Đại học Công nghiệp",
      "public_transport": "platform"
    }
  },
  {
    "type": "node",
    "id": 11758401396,
    "lat": 10.8178842,
    "lon": 106.6891579,
    "tags": {
      "bus": "yes",
      "highway": "bus_stop",
      "name": "Ngã ba Nguyên Hồng",
      "public_transport": "platform"
    }
  },
  {
    "type": "node",
    "id": 11773323797,
    "lat": 10.8331127,
    "lon": 106.6343858,
    "tags": {
      "bus": "yes",
      "highway": "bus_stop",
      "name": "Trường Cao đẳng Du lịch",
      "public_transport": "platform"
    }
  },
  {
    "type": "node",
    "id": 11773323798,
    "lat": 10.8348250,
    "lon": 106.6351663,
    "tags": {
      "bus": "yes",
      "highway": "bus_stop",
      "name": "Trung tâm y khoa Dân Sinh",
      "public_transport": "platform"
    }
  },
  {
    "type": "node",
    "id": 11773323800,
    "lat": 10.8394009,
    "lon": 106.6372719,
    "tags": {
      "bus": "yes",
      "highway": "bus_stop",
      "name": "Nhà sách Phan Huy Ích",
      "public_transport": "platform"
    }
  },
  {
    "type": "node",
    "id": 11773323804,
    "lat": 10.8458585,
    "lon": 106.6432902,
    "tags": {
      "bus": "yes",
      "highway": "bus_stop",
      "name": "Ngã ba Cây Trâm",
      "public_transport": "platform"
    }
  },
  {
    "type": "node",
    "id": 11773323805,
    "lat": 10.8470705,
    "lon": 106.6458235,
    "tags": {
      "bus": "yes",
      "highway": "bus_stop",
      "name": "Đường số 53",
      "public_transport": "platform"
    }
  },
  {
    "type": "node",
    "id": 11773323806,
    "lat": 10.8481644,
    "lon": 106.6480599,
    "tags": {
      "bus": "yes",
      "highway": "bus_stop",
      "name": "Công ty Huê Phong",
      "public_transport": "platform"
    }
  },
  {
    "type": "node",
    "id": 11773323807,
    "lat": 10.8495407,
    "lon": 106.6509737,
    "tags": {
      "bus": "yes",
      "highway": "bus_stop",
      "name": "Chợ Thạch Đà",
      "public_transport": "platform"
    }
  },
  {
    "type": "node",
    "id": 11773323808,
    "lat": 10.8507683,
    "lon": 106.6543077,
    "tags": {
      "bus": "yes",
      "highway": "bus_stop",
      "name": "Nhà thờ Thạch Đà",
      "public_transport": "platform"
    }
  },
  {
    "type": "node",
    "id": 11773323809,
    "lat": 10.8513794,
    "lon": 106.6575907,
    "tags": {
      "bus": "yes",
      "highway": "bus_stop",
      "name": "Trung tâm Văn hóa Quận Gò Vấp",
      "public_transport": "platform"
    }
  },
  {
    "type": "node",
    "id": 11773323812,
    "lat": 10.8510612,
    "lon": 106.6651240,
    "tags": {
      "bus": "yes",
      "highway": "bus_stop",
      "name": "Nhà thờ Hà Nội",
      "public_transport": "platform"
    }
  },
  {
    "type": "node",
    "id": 11773323813,
    "lat": 10.8491315,
    "lon": 106.6660560,
    "tags": {
      "bus": "yes",
      "highway": "bus_stop",
      "name": "Nhà thờ Trung Bắc",
      "public_transport": "platform"
    }
  },
  {
    "type": "node",
    "id": 11773323814,
    "lat": 10.8464006,
    "lon": 106.6705922,
    "tags": {
      "bus": "yes",
      "highway": "bus_stop",
      "name": "Trường THCS Lý Tự Trọng",
      "public_transport": "platform"
    }
  },
  {
    "type": "node",
    "id": 11773323815,
    "lat": 10.8447306,
    "lon": 106.6723759,
    "tags": {
      "bus": "yes",
      "highway": "bus_stop",
      "name": "Bệnh viện Gò Vấp",
      "public_transport": "platform"
    }
  },
  {
    "type": "node",
    "id": 11773323816,
    "lat": 10.8425407,
    "lon": 106.6757129,
    "tags": {
      "bus": "yes",
      "highway": "bus_stop",
      "name": "Ngã ba Lê Hoàng Phái",
      "public_transport": "platform"
    }
  },
  {
    "type": "node",
    "id": 11773635191,
    "lat": 10.8422053,
    "lon": 106.6762864,
    "tags": {
      "bus": "yes",
      "highway": "bus_stop",
      "name": "Ngã tư An Nhơn",
      "public_transport": "platform"
    }
  },
  {
    "type": "node",
    "id": 11773635192,
    "lat": 10.8450830,
    "lon": 106.6720298,
    "tags": {
      "bus": "yes",
      "highway": "bus_stop",
      "name": "Bệnh viện Gò Vấp",
      "public_transport": "platform"
    }
  },
  {
    "type": "node",
    "id": 11773635193,
    "lat": 10.8472608,
    "lon": 106.6693500,
    "tags": {
      "bus": "yes",
      "highway": "bus_stop",
      "name": "Trường Trung học Cơ sở Lý Tự Trọng",
      "public_transport": "platform"
    }
  },
  {
    "type": "node",
    "id": 11773635194,
    "lat": 10.8491349,
    "lon": 106.6661562,
    "tags": {
      "bus": "yes",
      "highway": "bus_stop",
      "name": "Nhà thờ Trung Bắc",
      "public_transport": "platform"
    }
  },
  {
    "type": "node",
    "id": 11773635195,
    "lat": 10.8518856,
    "lon": 106.6652990,
    "tags": {
      "bus": "yes",
      "highway": "bus_stop",
      "name": "Nhà thờ Hà Nội",
      "public_transport": "platform"
    }
  },
  {
    "type": "node",
    "id": 11773635196,
    "lat": 10.8537943,
    "lon": 106.6643199,
    "tags": {
      "bus": "yes",
      "highway": "bus_stop",
      "name": "Nhà thờ Hợp An",
      "public_transport": "platform"
    }
  },
  {
    "type": "node",
    "id": 11773635197,
    "lat": 10.8529307,
    "lon": 106.6617963,
    "tags": {
      "bus": "yes",
      "highway": "bus_stop",
      "name": "Trường Tiểu học Lê Thị Hồng Gấm 1",
      "public_transport": "platform"
    }
  },
  {
    "type": "node",
    "id": 11773635198,
    "lat": 10.8515590,
    "lon": 106.6578575,
    "tags": {
      "bus": "yes",
      "highway": "bus_stop",
      "name": "Trung tâm Văn hóa Quận Gò Vấp",
      "public_transport": "platform"
    }
  },
  {
    "type": "node",
    "id": 11773635200,
    "lat": 10.8497047,
    "lon": 106.6511365,
    "tags": {
      "bus": "yes",
      "highway": "bus_stop",
      "name": "Chợ Thạch Đà",
      "public_transport": "platform"
    }
  },
  {
    "type": "node",
    "id": 11773635201,
    "lat": 10.8484164,
    "lon": 106.6484244,
    "tags": {
      "bus": "yes",
      "highway": "bus_stop",
      "name": "Công ty Huê Phong",
      "public_transport": "platform"
    }
  },
  {
    "type": "node",
    "id": 11773635202,
    "lat": 10.8469903,
    "lon": 106.6454907,
    "tags": {
      "bus": "yes",
      "highway": "bus_stop",
      "name": "Đường số 53",
      "public_transport": "platform"
    }
  },
  {
    "type": "node",
    "id": 11773635203,
    "lat": 10.8460431,
    "lon": 106.6434992,
    "tags": {
      "bus": "yes",
      "highway": "bus_stop",
      "name": "Ngã ba Cây Trâm",
      "public_transport": "platform"
    }
  },
  {
    "type": "node",
    "id": 11773635204,
    "lat": 10.8450343,
    "lon": 106.6414965,
    "tags": {
      "bus": "yes",
      "highway": "bus_stop",
      "name": "Trường Tiểu học An Hội",
      "public_transport": "platform"
    }
  },
  {
    "type": "node",
    "id": 11773635205,
    "lat": 10.8429186,
    "lon": 106.6392426,
    "tags": {
      "bus": "yes",
      "highway": "bus_stop",
      "name": "Ngã ba Nguyễn Duy Cung",
      "public_transport": "platform"
    }
  },
  {
    "type": "node",
    "id": 11773635206,
    "lat": 10.8410171,
    "lon": 106.6380159,
    "tags": {
      "bus": "yes",
      "highway": "bus_stop",
      "name": "Chùa Linh Sơn Hải Hội",
      "public_transport": "platform"
    }
  },
  {
    "type": "node",
    "id": 11773635207,
    "lat": 10.8374657,
    "lon": 106.6362908,
    "tags": {
      "bus": "yes",
      "highway": "bus_stop",
      "name": "Nhà sách Phan Huy Ích",
      "public_transport": "platform"
    }
  },
  {
    "type": "node",
    "id": 11773635208,
    "lat": 10.8349355,
    "lon": 106.6351699,
    "tags": {
      "bus": "yes",
      "highway": "bus_stop",
      "name": "Trung tân Y khoa Dân Sinh",
      "public_transport": "platform"
    }
  },
  {
    "type": "node",
    "id": 11773635209,
    "lat": 10.8324515,
    "lon": 106.6339940,
    "tags": {
      "bus": "yes",
      "highway": "bus_stop",
      "name": "Trường Cao đẳng Du lịch",
      "public_transport": "platform"
    }
  },
  {
    "type": "node",
    "id": 11774744220,
    "lat": 10.8271499,
    "lon": 106.6884442,
    "tags": {
      "bus": "yes",
      "highway": "bus_stop",
      "name": "Vincom Plaza Phan Văn Trị",
      "public_transport": "platform"
    }
  },
  {
    "type": "node",
    "id": 11774744221,
    "lat": 10.8285099,
    "lon": 106.6849843,
    "tags": {
      "bus": "yes",
      "highway": "bus_stop",
      "name": "PCCC Quận Gò Vấp",
      "public_transport": "platform"
    }
  },
  {
    "type": "node",
    "id": 11774744223,
    "lat": 10.8303914,
    "lon": 106.6791589,
    "tags": {
      "bus": "yes",
      "highway": "bus_stop",
      "name": "Cây xăng Petrolimex - Phan Văn Trị",
      "public_transport": "platform"
    }
  },
  {
    "type": "node",
    "id": 11774744224,
    "lat": 10.8316943,
    "lon": 106.6754682,
    "tags": {
      "bus": "yes",
      "highway": "bus_stop",
      "name": "Nhà máy Z751",
      "public_transport": "platform"
    }
  },
  {
    "type": "node",
    "id": 11774744226,
    "lat": 10.8336647,
    "lon": 106.6699562,
    "tags": {
      "bus": "yes",
      "highway": "bus_stop",
      "name": "Country House",
      "public_transport": "platform"
    }
  },
  {
    "type": "node",
    "id": 11774744227,
    "lat": 10.8349143,
    "lon": 106.6664899,
    "tags": {
      "bus": "yes",
      "highway": "bus_stop",
      "name": "Chợ Thông Tây",
      "public_transport": "platform"
    }
  },
  {
    "type": "node",
    "id": 11774744229,
    "lat": 10.8381614,
    "lon": 106.6651883,
    "tags": {
      "bus": "yes",
      "highway": "bus_stop",
      "name": "Ngã ba Nguyễn Văn Lương",
      "public_transport": "platform"
    }
  },
  {
    "type": "node",
    "id": 11774744230,
    "lat": 10.8421157,
    "lon": 106.6647947,
    "tags": {
      "bus": "yes",
      "highway": "bus_stop",
      "name": "UBND Phường 16",
      "public_transport": "platform"
    }
  },
  {
    "type": "node",
    "id": 11774744231,
    "lat": 10.8454815,
    "lon": 106.6648066,
    "tags": {
      "bus": "yes",
      "highway": "bus_stop",
      "name": "Trường Đại học Hồng Bàng",
      "public_transport": "platform"
    }
  },
  {
    "type": "node",
    "id": 11774744232,
    "lat": 10.8479826,
    "lon": 106.6646183,
    "tags": {
      "bus": "yes",
      "highway": "bus_stop",
      "name": "Chùa Tiên Long",
      "public_transport": "platform"
    }
  },
  {
    "type": "node",
    "id": 11774744243,
    "lat": 10.8568394,
    "lon": 106.6538451,
    "tags": {
      "bus": "yes",
      "highway": "bus_stop",
      "name": "Nhà thờ Nữ Vương Hòa Bình",
      "public_transport": "platform"
    }
  },
  {
    "type": "node",
    "id": 11774744244,
    "lat": 10.8543400,
    "lon": 106.6568186,
    "tags": {
      "bus": "yes",
      "highway": "bus_stop",
      "name": "Cầu Cụt",
      "public_transport": "platform"
    }
  },
  {
    "type": "node",
    "id": 11774744245,
    "lat": 10.8480035,
    "lon": 106.6645415,
    "tags": {
      "bus": "yes",
      "highway": "bus_stop",
      "name": "Chùa Tiên Long",
      "public_transport": "platform"
    }
  },
  {
    "type": "node",
    "id": 11774744246,
    "lat": 10.8446375,
    "lon": 106.6647386,
    "tags": {
      "bus": "yes",
      "highway": "bus_stop",
      "name": "Trường Đại học Hồng Bàng",
      "public_transport": "platform"
    }
  },
  {
    "type": "node",
    "id": 11774744247,
    "lat": 10.8424703,
    "lon": 106.6646841,
    "tags": {
      "bus": "yes",
      "highway": "bus_stop",
      "name": "UBND Phường 16",
      "public_transport": "platform"
    }
  },
  {
    "type": "node",
    "id": 11774744248,
    "lat": 10.8392196,
    "lon": 106.6652588,
    "tags": {
      "bus": "yes",
      "highway": "bus_stop",
      "name": "Ngã ba Nguyễn Văn Lương",
      "public_transport": "platform"
    }
  },
  {
    "type": "node",
    "id": 11774744249,
    "lat": 10.8363273,
    "lon": 106.6646925,
    "tags": {
      "bus": "yes",
      "highway": "bus_stop",
      "name": "Chợ Thông Tây",
      "public_transport": "platform"
    }
  },
  {
    "type": "node",
    "id": 11774744250,
    "lat": 10.8349923,
    "lon": 106.6658839,
    "tags": {
      "bus": "yes",
      "highway": "bus_stop",
      "name": "Chợ Thông Tây",
      "public_transport": "platform"
    }
  },
  {
    "type": "node",
    "id": 11774744251,
    "lat": 10.8338510,
    "lon": 106.6690259,
    "tags": {
      "bus": "yes",
      "highway": "bus_stop",
      "name": "Country House",
      "public_transport": "platform"
    }
  },
  {
    "type": "node",
    "id": 11774744252,
    "lat": 10.8327917,
    "lon": 106.6719765,
    "tags": {
      "bus": "yes",
      "highway": "bus_stop",
      "name": "Nhà khách Phía Nam",
      "public_transport": "platform"
    }
  },
  {
    "type": "node",
    "id": 11774744253,
    "lat": 10.8320145,
    "lon": 106.6741154,
    "tags": {
      "bus": "yes",
      "highway": "bus_stop",
      "name": "Du Miên Garden",
      "public_transport": "platform"
    }
  },
  {
    "type": "node",
    "id": 11774744254,
    "lat": 10.8310764,
    "lon": 106.6767713,
    "tags": {
      "bus": "yes",
      "highway": "bus_stop",
      "name": "Ngã tư Nguyễn Oanh",
      "public_transport": "platform"
    }
  },
  {
    "type": "node",
    "id": 11774744255,
    "lat": 10.8302833,
    "lon": 106.6790424,
    "tags": {
      "bus": "yes",
      "highway": "bus_stop",
      "name": "Cây xăng Petrolimex - Phan Văn Trị",
      "public_transport": "platform"
    }
  },
  {
    "type": "node",
    "id": 11774744256,
    "lat": 10.8295004,
    "lon": 106.6814303,
    "tags": {
      "bus": "yes",
      "highway": "bus_stop",
      "name": "CoopMart Phan Văn Trị",
      "public_transport": "platform"
    }
  },
  {
    "type": "node",
    "id": 11774744257,
    "lat": 10.8282689,
    "lon": 106.6852083,
    "tags": {
      "bus": "yes",
      "highway": "bus_stop",
      "name": "PCCC Quận Gò Vấp",
      "public_transport": "platform"
    }
  },
  {
    "type": "node",
    "id": 11774744258,
    "lat": 10.8275224,
    "lon": 106.6874251,
    "tags": {
      "bus": "yes",
      "highway": "bus_stop",
      "name": "Vincom Plaza Phan Văn Trị",
      "public_transport": "platform"
    }
  },
  {
    "type": "node",
    "id": 11774744259,
    "lat": 10.8235977,
    "lon": 106.6920944,
    "tags": {
      "bus": "yes",
      "highway": "bus_stop",
      "name": "Bãi hậu cần số 1",
      "public_transport": "platform"
    }
  },
  {
    "type": "node",
    "id": 11787220774,
    "lat": 10.8174167,
    "lon": 106.6854691,
    "tags": {
      "bus": "yes",
      "highway": "bus_stop",
      "name": "Lê Lai",
      "public_transport": "platform"
    }
  },
  {
    "type": "node",
    "id": 11787220775,
    "lat": 10.8185798,
    "lon": 106.6880510,
    "tags": {
      "bus": "yes",
      "highway": "bus_stop",
      "name": "Phạm Văn Đồng",
      "public_transport": "platform"
    }
  },
  {
    "type": "node",
    "id": 11787220776,
    "lat": 10.8194763,
    "lon": 106.6907499,
    "tags": {
      "bus": "yes",
      "highway": "bus_stop",
      "name": "Nút giao Lê Quang Định",
      "public_transport": "platform"
    }
  },
  {
    "type": "node",
    "id": 11789253338,
    "lat": 10.8204822,
    "lon": 106.6932432,
    "tags": {
      "bus": "yes",
      "highway": "bus_stop",
      "name": "Chùa Phổ Minh",
      "public_transport": "platform"
    }
  },
  {
    "type": "node",
    "id": 11789253339,
    "lat": 10.8194030,
    "lon": 106.6893271,
    "tags": {
      "bus": "yes",
      "highway": "bus_stop",
      "name": "Nút giao Lê Quang Định",
      "public_transport": "platform"
    }
  },
  {
    "type": "node",
    "id": 11789253340,
    "lat": 10.8175831,
    "lon": 106.6852440,
    "tags": {
      "bus": "yes",
      "highway": "bus_stop",
      "name": "Lê Lợi",
      "public_transport": "platform"
    }
  },
  {
    "type": "node",
    "id": 11799114427,
    "lat": 10.8218589,
    "lon": 106.6787945,
    "tags": {
      "bus": "yes",
      "highway": "bus_stop",
      "name": "Xóm Cháy",
      "public_transport": "platform"
    }
  },
  {
    "type": "node",
    "id": 11861142573,
    "lat": 10.8136509,
    "lon": 106.6741609,
    "tags": {
      "bus": "yes",
      "highway": "bus_stop",
      "name": "Ngã tư Kênh Nhật Bản - Hồng Hà",
      "public_transport": "platform"
    }
  },
  {
    "type": "node",
    "id": 11861142574,
    "lat": 10.8140201,
    "lon": 106.6776269,
    "tags": {
      "bus": "yes",
      "highway": "bus_stop",
      "name": "Vòng xoay Nguyễn Thái Sơn",
      "public_transport": "platform"
    }
  },
  {
    "type": "node",
    "id": 11861142575,
    "lat": 10.8386181,
    "lon": 106.6578116,
    "tags": {
      "bus": "yes",
      "highway": "bus_stop",
      "name": "Chợ Cây Trâm",
      "public_transport": "platform"
    }
  },
  {
    "type": "node",
    "id": 11861142576,
    "lat": 10.8435279,
    "lon": 106.6571623,
    "tags": {
      "bus": "yes",
      "highway": "bus_stop",
      "name": "Ngã ba Cây Trâm",
      "public_transport": "platform"
    }
  },
  {
    "type": "node",
    "id": 11861142580,
    "lat": 10.8540512,
    "lon": 106.6559574,
    "tags": {
      "bus": "yes",
      "highway": "bus_stop",
      "name": "Ngã ba Lê Đức Thọ",
      "public_transport": "platform"
    }
  },
  {
    "type": "node",
    "id": 11861142581,
    "lat": 10.8487504,
    "lon": 106.6566743,
    "tags": {
      "bus": "yes",
      "highway": "bus_stop",
      "name": "Nhà hàng Tư Trì",
      "public_transport": "platform"
    }
  },
  {
    "type": "node",
    "id": 11861142582,
    "lat": 10.8459135,
    "lon": 106.6569458,
    "tags": {
      "bus": "yes",
      "highway": "bus_stop",
      "name": "Câu lạc bộ Tennis - 329 Lê Văn Thọ",
      "public_transport": "platform"
    }
  },
  {
    "type": "node",
    "id": 11861142583,
    "lat": 10.8431738,
    "lon": 106.6570853,
    "tags": {
      "bus": "yes",
      "highway": "bus_stop",
      "name": "Ngã ba Cây Trâm",
      "public_transport": "platform"
    }
  },
  {
    "type": "node",
    "id": 11861142584,
    "lat": 10.8380400,
    "lon": 106.6578611,
    "tags": {
      "bus": "yes",
      "highway": "bus_stop",
      "name": "Chợ Cây Trâm",
      "public_transport": "platform"
    }
  },
  {
    "type": "node",
    "id": 11861142585,
    "lat": 10.8146535,
    "lon": 106.6778013,
    "tags": {
      "bus": "yes",
      "highway": "bus_stop",
      "name": "Chợ Tân Sơn Nhất",
      "public_transport": "platform"
    }
  },
  {
    "type": "node",
    "id": 11868138115,
    "lat": 10.8338233,
    "lon": 106.6847779,
    "tags": {
      "bus": "yes",
      "highway": "bus_stop",
      "name": "Ngã ba Phạm Huy Thông",
      "public_transport": "platform"
    }
  },
  {
    "type": "node",
    "id": 11868138118,
    "lat": 10.8386051,
    "lon": 106.6792935,
    "tags": {
      "bus": "yes",
      "highway": "bus_stop",
      "name": "UBND Phường 17",
      "public_transport": "platform"
    }
  },
  {
    "type": "node",
    "id": 11868138119,
    "lat": 10.8386326,
    "lon": 106.6763147,
    "tags": {
      "bus": "yes",
      "highway": "bus_stop",
      "name": "Đài liệt sĩ",
      "public_transport": "platform"
    }
  },
  {
    "type": "node",
    "id": 11868138120,
    "lat": 10.8386444,
    "lon": 106.6741676,
    "tags": {
      "bus": "yes",
      "highway": "bus_stop",
      "name": "Ngã sáu Gò Vấp",
      "public_transport": "platform"
    }
  },
  {
    "type": "node",
    "id": 11868138121,
    "lat": 10.8386837,
    "lon": 106.6707729,
    "tags": {
      "bus": "yes",
      "highway": "bus_stop",
      "name": "Lotte Mart",
      "public_transport": "platform"
    }
  },
  {
    "type": "node",
    "id": 11868138122,
    "lat": 10.8387182,
    "lon": 106.6666700,
    "tags": {
      "bus": "yes",
      "highway": "bus_stop",
      "name": "Điện lực Gò Vấp",
      "public_transport": "platform"
    }
  },
  {
    "type": "node",
    "id": 11868138137,
    "lat": 10.8385223,
    "lon": 106.6711251,
    "tags": {
      "bus": "yes",
      "highway": "bus_stop",
      "name": "Lotte Mart",
      "public_transport": "platform"
    }
  },
  {
    "type": "node",
    "id": 11868138138,
    "lat": 10.8384638,
    "lon": 106.6744936,
    "tags": {
      "bus": "yes",
      "highway": "bus_stop",
      "name": "Ngã sáu Gò Vấp",
      "public_transport": "platform"
    }
  },
  {
    "type": "node",
    "id": 11868138141,
    "lat": 10.8373157,
    "lon": 106.6806436,
    "tags": {
      "bus": "yes",
      "highway": "bus_stop",
      "name": "Trường Văn thư lưu trữ",
      "public_transport": "platform"
    }
  },
  {
    "type": "node",
    "id": 11868138142,
    "lat": 10.8361415,
    "lon": 106.6834944,
    "tags": {
      "bus": "yes",
      "highway": "bus_stop",
      "name": "XP Garden",
      "public_transport": "platform"
    }
  },
  {
    "type": "node",
    "id": 11868138143,
    "lat": 10.8338835,
    "lon": 106.6846580,
    "tags": {
      "bus": "yes",
      "highway": "bus_stop",
      "name": "Ngã ba Phạm Huy Thông",
      "public_transport": "platform"
    }
  }
  
    ]
  }
  